{"error":null,"list":{"id":1,"name":"PHP-Usergroups","description":"PHP-Usergroups","usergroups":[]},"groups":[{"id":1,"name":"Frankfurt","shortname":"ffm","url":"http:\/\/phpugffm.de","icalendar_url":"http:\/\/www.phpugffm.de\/?ical=1","latitude":50.11395,"longitude":8.67923,"ugtype":[],"contacts":[],"state":1,"inputFilter":null,"country":"Germany","cc":"DE","ccc":"DEU"},{"id":2,"name":"Rheinhessen","shortname":"mainz","url":"http:\/\/phpug-rheinhessen.de\/","icalendar_url":null,"latitude":49.9999,"longitude":8.26944,"ugtype":[],"contacts":[],"state":1,"inputFilter":null,"country":"Germany","cc":"DE","ccc":"DEU"},{"id":3,"name":"Berlin","shortname":"be","url":"http:\/\/bephpug.de","icalendar_url":"","latitude":52.51861,"longitude":13.40805,"ugtype":[],"contacts":[],"state":1,"inputFilter":null,"country":"Germany","cc":"DE","ccc":"DEU"},{"id":4,"name":"Hannover","shortname":"hannover","url":"http:\/\/phpug-hannover.de","icalendar_url":null,"latitude":52.3844,"longitude":9.7272,"ugtype":[],"contacts":[],"state":1,"inputFilter":null,"country":"Germany","cc":"DE","ccc":"DEU"},{"id":6,"name":"Hamburg","shortname":"hamburg","url":"http:\/\/www.phpug-hamburg.de","icalendar_url":"","latitude":53.565278,"longitude":10.001389,"ugtype":[],"contacts":[],"state":1,"inputFilter":null,"country":"Germany","cc":"DE","ccc":"DEU"},{"id":8,"name":"M\u00fcnchen","shortname":"munich","url":"http:\/\/www.phpugmunich.org\/","icalendar_url":"","latitude":48.133333,"longitude":11.566667,"ugtype":[],"contacts":[],"state":1,"inputFilter":null,"country":"Germany","cc":"DE","ccc":"DEU"},{"id":10,"name":"Stuttgart","shortname":"s","url":"http:\/\/www.phpugs.de","icalendar_url":null,"latitude":48.778611,"longitude":9.179444,"ugtype":[],"contacts":[],"state":1,"inputFilter":null,"country":"Germany","cc":"DE","ccc":"DEU"},{"id":11,"name":"Benelux","shortname":"benelux","url":"http:\/\/phpbenelux.eu","icalendar_url":null,"latitude":51.2192,"longitude":4.4029,"ugtype":[],"contacts":[],"state":1,"inputFilter":null,"country":"Belgium","cc":"BE","ccc":"BEL"},{"id":12,"name":"Leeds","shortname":"leeds","url":"http:\/\/leedsphp.org\/","icalendar_url":null,"latitude":53.8013,"longitude":-1.5486,"ugtype":[],"contacts":[],"state":1,"inputFilter":null},{"id":13,"name":"Manchester","shortname":"nw","url":"http:\/\/phpnw.org.uk","icalendar_url":null,"latitude":53.4793,"longitude":-2.2479,"ugtype":[],"contacts":[],"state":1,"inputFilter":null,"country":"United Kingdom","cc":"GB","ccc":"GBR"},{"id":14,"name":"Dallas","shortname":"dallas","url":"http:\/\/www.meetup.com\/dallasphp\/","icalendar_url":null,"latitude":32.803,"longitude":-96.7699,"ugtype":[],"contacts":[],"state":1,"inputFilter":null,"country":"United States","cc":"US","ccc":"USA"},{"id":15,"name":"London","shortname":"london","url":"http:\/\/www.phplondon.org\/","icalendar_url":null,"latitude":51.507222,"longitude":-0.1275,"ugtype":[],"contacts":[],"state":1,"inputFilter":null,"country":"United Kingdom","cc":"GB","ccc":"GBR"},{"id":16,"name":"Qu\u00e9bec","shortname":"quebec","url":"http:\/\/www.phpquebec.org\/","icalendar_url":null,"latitude":45.5077,"longitude":-73.5626,"ugtype":[],"contacts":[],"state":1,"inputFilter":null,"country":"Canada","cc":"CA","ccc":"CAN"},{"id":17,"name":"Paris","shortname":"paris","url":"http:\/\/afup.org","icalendar_url":null,"latitude":48.856667,"longitude":2.351667,"ugtype":[],"contacts":[],"state":1,"inputFilter":null,"country":"France","cc":"FR","ccc":"FRA"},{"id":18,"name":"Lyon","shortname":"lyon","url":"http:\/\/afup.org","icalendar_url":null,"latitude":45.758889,"longitude":4.841389,"ugtype":[],"contacts":[],"state":1,"inputFilter":null,"country":"France","cc":"FR","ccc":"FRA"},{"id":19,"name":"Bordeaux","shortname":"bordeaux","url":"http:\/\/afup.org","icalendar_url":null,"latitude":44.837778,"longitude":-0.579444,"ugtype":[],"contacts":[],"state":1,"inputFilter":null,"country":"France","cc":"FR","ccc":"FRA"},{"id":20,"name":"Lille","shortname":"lille","url":"http:\/\/afup.org","icalendar_url":null,"latitude":50.631944,"longitude":3.0575,"ugtype":[],"contacts":[],"state":1,"inputFilter":null,"country":"France","cc":"FR","ccc":"FRA"},{"id":21,"name":"Nantes","shortname":"nantes","url":"http:\/\/afup.org","icalendar_url":null,"latitude":47.217222,"longitude":-1.553889,"ugtype":[],"contacts":[],"state":1,"inputFilter":null,"country":"France","cc":"FR","ccc":"FRA"},{"id":22,"name":"Melbourne","shortname":"melb","url":"http:\/\/phpmelb.org","icalendar_url":null,"latitude":-37.8,"longitude":144.95,"ugtype":[],"contacts":[],"state":1,"inputFilter":null,"country":"Australia","cc":"AU","ccc":"AUS"},{"id":23,"name":"Bras\u00edlia","shortname":"df","url":"http:\/\/www.phpdf.org.br","icalendar_url":null,"latitude":-15.8,"longitude":-47.85,"ugtype":[],"contacts":[],"state":1,"inputFilter":null,"country":"Brazil","cc":"BR","ccc":"BRA"},{"id":24,"name":"Foz do Igua\u00e7u","shortname":"foz","url":"http:\/\/phpfoz.org\/","icalendar_url":null,"latitude":-25.542778,"longitude":-54.581944,"ugtype":[],"contacts":[],"state":1,"inputFilter":null,"country":"Brazil","cc":"BR","ccc":"BRA"},{"id":25,"name":"Houston","shortname":"houston","url":"http:\/\/houstonphp.org\/","icalendar_url":null,"latitude":29.762778,"longitude":-95.383056,"ugtype":[],"contacts":[],"state":1,"inputFilter":null,"country":"United States","cc":"US","ccc":"USA"},{"id":26,"name":"Nashville","shortname":"nashville","url":"http:\/\/www.nashvillephp.org\/","icalendar_url":null,"latitude":36.165833,"longitude":-86.784444,"ugtype":[],"contacts":[],"state":1,"inputFilter":null,"country":"United States","cc":"US","ccc":"USA"},{"id":27,"name":"Vietnam","shortname":"vietnam","url":"http:\/\/groups.google.com\/group\/phpvietnam","icalendar_url":null,"latitude":21.033333,"longitude":105.85,"ugtype":[],"contacts":[],"state":1,"inputFilter":null,"country":"Vietnam","cc":"VN","ccc":"VNM"},{"id":28,"name":"Venezuela","shortname":"ve","url":"http:\/\/php.org.ve\/","icalendar_url":null,"latitude":10.5,"longitude":-66.933333,"ugtype":[],"contacts":[],"state":1,"inputFilter":null,"country":"Venezuela","cc":"VE","ccc":"VEN"},{"id":29,"name":"West-Midlands","shortname":"wm","url":"http:\/\/phpwm.org.uk\/","icalendar_url":null,"latitude":52.4829,"longitude":-1.8936,"ugtype":[],"contacts":[],"state":1,"inputFilter":null,"country":"United Kingdom","cc":"GB","ccc":"GBR"},{"id":30,"name":"Turkey","shortname":"tr","url":"http:\/\/www.php-tr.com\/","icalendar_url":null,"latitude":41.01,"longitude":28.960278,"ugtype":[],"contacts":[],"state":1,"inputFilter":null,"country":"Turkey","cc":"TR","ccc":"TUR"},{"id":31,"name":"Barcelona","shortname":"barcelona","url":"http:\/\/phpbarcelona.org\/","icalendar_url":null,"latitude":41.4,"longitude":2.166667,"ugtype":[],"contacts":[],"state":1,"inputFilter":null,"country":"Spain","cc":"ES","ccc":"ESP"},{"id":32,"name":"Taiwan","shortname":"tw","url":"http:\/\/twpug.net\/","icalendar_url":null,"latitude":23.716667,"longitude":120.85,"ugtype":[],"contacts":[],"state":1,"inputFilter":null},{"id":33,"name":"Singapore","shortname":"singapore","url":"https:\/\/www.facebook.com\/groups\/sghypertextpreprocessors\/","icalendar_url":"\r\n","latitude":1.283333,"longitude":103.833333,"ugtype":[],"contacts":[],"state":1,"inputFilter":null},{"id":34,"name":"Serbia","shortname":"serbia","url":"http:\/\/groups.google.com\/group\/zend-developers-serbia","icalendar_url":null,"latitude":43.95,"longitude":20.933333,"ugtype":[],"contacts":[],"state":1,"inputFilter":null,"country":"Serbia","cc":"RS","ccc":"SRB"},{"id":35,"name":"Samara","shortname":"samara","url":"http:\/\/phpug.vereshagin.org\/","icalendar_url":null,"latitude":53.183333,"longitude":50.116667,"ugtype":[],"contacts":[],"state":1,"inputFilter":null,"country":"Russia","cc":"RU","ccc":"RUS"},{"id":36,"name":"Craiova","shortname":"craiova","url":"http:\/\/www.tai.ro\/","icalendar_url":null,"latitude":44.316667,"longitude":23.8,"ugtype":[],"contacts":[],"state":1,"inputFilter":null,"country":"Romania","cc":"RO","ccc":"ROU"},{"id":37,"name":"Portugal","shortname":"pt","url":"http:\/\/www.php-pt.com\/","icalendar_url":null,"latitude":39.383333,"longitude":-8.2,"ugtype":[],"contacts":[],"state":1,"inputFilter":null,"country":"Portugal","cc":"PT","ccc":"PRT"},{"id":38,"name":"Phillipines","shortname":"ph","url":"http:\/\/www.phpugph.com\/","icalendar_url":null,"latitude":14.583333,"longitude":121,"ugtype":[],"contacts":[],"state":1,"inputFilter":null,"country":"Philippines","cc":"PH","ccc":"PHL"},{"id":39,"name":"Norway","shortname":"norge","url":"http:\/\/www.phpfusion-no.com\/news.php","icalendar_url":null,"latitude":59.91,"longitude":10.75,"ugtype":[],"contacts":[],"state":1,"inputFilter":null,"country":"Norway","cc":"NO","ccc":"NOR"},{"id":40,"name":"New Zealand","shortname":"nz","url":"http:\/\/www.phpug.org.nz","icalendar_url":null,"latitude":-41.283333,"longitude":174.766667,"ugtype":[],"contacts":[],"state":1,"inputFilter":null,"country":"New Zealand","cc":"NZ","ccc":"NZL"},{"id":41,"name":"South Florida PHP-Usergroup","shortname":"sfug","url":"http:\/\/www.meetup.com\/South-Florida-PHP-Users-Group\/","icalendar_url":"webcal:\/\/www.meetup.com\/South-Florida-PHP-Users-Group\/events\/ical\/South+Florida+PHP+Users+Group\/","latitude":26.368611,"longitude":-80.1,"ugtype":[],"contacts":[],"state":1,"inputFilter":null,"country":"United States","cc":"US","ccc":"USA"},{"id":42,"name":"Raleigh (N.C.) PHP & MySQL","shortname":"raleigh","url":"http:\/\/www.meetup.com\/mysql-144\/","icalendar_url":"webcal:\/\/www.meetup.com\/mysql-144\/events\/ical\/The+Raleigh+MySQL-PHP+Meetup+Group\/","latitude":35.818889,"longitude":-78.644722,"ugtype":[],"contacts":[],"state":1,"inputFilter":null,"country":"United States","cc":"US","ccc":"USA"},{"id":43,"name":"Karlsruhe","shortname":"ka","url":"http:\/\/www.phpug-karlsruhe.de\/","icalendar_url":"http:\/\/www.google.com\/calendar\/ical\/mafkfmt027apbn6edggndjpmh0%40group.calendar.google.com\/public\/basic.ics","latitude":49.014,"longitude":8.4043,"ugtype":[],"contacts":[],"state":1,"inputFilter":null},{"id":44,"name":"W\u00fcrzburg","shortname":"wuerzburg","url":"http:\/\/www.phpug-wuerzburg.de\/","icalendar_url":null,"latitude":49.794444,"longitude":9.929444,"ugtype":[],"contacts":[],"state":1,"inputFilter":null},{"id":45,"name":"Halle","shortname":"halle","url":"http:\/\/www.phpug-halle.de\/","icalendar_url":null,"latitude":51.482778,"longitude":11.97,"ugtype":[],"contacts":[],"state":1,"inputFilter":null},{"id":46,"name":"Lake \/ Kenosha County","shortname":"lakekenoshaphp","url":"http:\/\/www.lakekenoshaphp.com\/","icalendar_url":null,"latitude":42.479167,"longitude":-88.090833,"ugtype":[],"contacts":[],"state":1,"inputFilter":null,"country":"United States","cc":"US","ccc":"USA"},{"id":47,"name":"Memphis","shortname":"memphis","url":"http:\/\/www.memphisphp.org","icalendar_url":null,"latitude":35.149444,"longitude":-90.048889,"ugtype":[],"contacts":[],"state":1,"inputFilter":null,"country":"United States","cc":"US","ccc":"USA"},{"id":48,"name":"Milwaukee","shortname":"mkepug","url":"http:\/\/www.mkepug.org\/","icalendar_url":null,"latitude":43.052222,"longitude":-87.955833,"ugtype":[],"contacts":[],"state":1,"inputFilter":null,"country":"United States","cc":"US","ccc":"USA"},{"id":50,"name":"Amsterdam","shortname":"amsterdam","url":"http:\/\/www.amsterdamphp.nl\/","icalendar_url":null,"latitude":52.370197,"longitude":4.890444,"ugtype":[],"contacts":[],"state":1,"inputFilter":null,"country":"The Netherlands","cc":"NL","ccc":"NLD"},{"id":51,"name":"Minas Gerais","shortname":"mg","url":"http:\/\/www.phpmg.com\/","icalendar_url":null,"latitude":-19.916667,"longitude":-43.933333,"ugtype":[],"contacts":[],"state":1,"inputFilter":null,"country":"Brazil","cc":"BR","ccc":"BRA"},{"id":53,"name":"Guelph","shortname":"gpug","url":"http:\/\/www.gpug.ca\/","icalendar_url":null,"latitude":43.541111,"longitude":-80.278333,"ugtype":[],"contacts":[],"state":1,"inputFilter":null,"country":"Canada","cc":"CA","ccc":"CAN"},{"id":54,"name":"Rome","shortname":"roma","url":"http:\/\/roma.grusp.org\/","icalendar_url":null,"latitude":41.9,"longitude":12.5,"ugtype":[],"contacts":[],"state":1,"inputFilter":null,"country":"Italy","cc":"IT","ccc":"ITA"},{"id":55,"name":"S\u00e3o Paolo","shortname":"sp","url":"http:\/\/phpsp.org.br\/","icalendar_url":null,"latitude":-23.5,"longitude":-46.616667,"ugtype":[],"contacts":[],"state":1,"inputFilter":null,"country":"Brazil","cc":"BR","ccc":"BRA"},{"id":56,"name":"Milano","shortname":"milano","url":"http:\/\/milano.grusp.org\/","icalendar_url":null,"latitude":45.4625,"longitude":9.186389,"ugtype":[],"contacts":[],"state":1,"inputFilter":null,"country":"Italy","cc":"IT","ccc":"ITA"},{"id":57,"name":"Sydney","shortname":"syd","url":"http:\/\/sydphp.org\/","icalendar_url":null,"latitude":-33.85,"longitude":151.2,"ugtype":[],"contacts":[],"state":1,"inputFilter":null,"country":"Australia","cc":"AU","ccc":"AUS"},{"id":58,"name":"Triangle","shortname":"triangle","url":"http:\/\/www.meetup.com\/trianglephp\/","icalendar_url":null,"latitude":35.818889,"longitude":-78.644722,"ugtype":[],"contacts":[],"state":1,"inputFilter":null,"country":"United States","cc":"US","ccc":"USA"},{"id":59,"name":"Minnesota","shortname":"minnesota","url":"http:\/\/www.mnphp.org\/","icalendar_url":null,"latitude":44.980194,"longitude":-93.264075,"ugtype":[],"contacts":[],"state":1,"inputFilter":null,"country":"United States","cc":"US","ccc":"USA"},{"id":60,"name":"Louisville","shortname":"louisville","url":"http:\/\/www.meetup.com\/Louisville-PHP-User-Group\/","icalendar_url":null,"latitude":38.254167,"longitude":-85.760278,"ugtype":[],"contacts":[],"state":1,"inputFilter":null,"country":"United States","cc":"US","ccc":"USA"},{"id":61,"name":"Atlanta","shortname":"atlanta","url":"http:\/\/atlantaphp.org\/","icalendar_url":null,"latitude":33.756944,"longitude":-84.390278,"ugtype":[],"contacts":[],"state":1,"inputFilter":null,"country":"United States","cc":"US","ccc":"USA"},{"id":62,"name":"Kansas City","shortname":"kc","url":"http:\/\/kcpug.org\/","icalendar_url":null,"latitude":39.109722,"longitude":-94.588611,"ugtype":[],"contacts":[],"state":1,"inputFilter":null,"country":"United States","cc":"US","ccc":"USA"},{"id":63,"name":"Los Angeles","shortname":"laphp","url":"http:\/\/www.laphp.org\/","icalendar_url":null,"latitude":34.052222,"longitude":-118.243611,"ugtype":[],"contacts":[],"state":1,"inputFilter":null,"country":"United States","cc":"US","ccc":"USA"},{"id":64,"name":"Ohio, Indiana, Northern Kentucky","shortname":"oink","url":"http:\/\/oink-pug.org\/","icalendar_url":null,"latitude":39.136111,"longitude":-84.503056,"ugtype":[],"contacts":[],"state":1,"inputFilter":null,"country":"United States","cc":"US","ccc":"USA"},{"id":65,"name":"Burlington","shortname":"burlington","url":"https:\/\/groups.google.com\/forum\/?fromgroups#!forum\/burlington-vt-php","icalendar_url":null,"latitude":44.466667,"longitude":-73.15,"ugtype":[],"contacts":[],"state":1,"inputFilter":null,"country":"United States","cc":"US","ccc":"USA"},{"id":66,"name":"Lehigh Valley","shortname":"lehigh","url":"http:\/\/meetup.lehighvalleyphp.com\/","icalendar_url":null,"latitude":40.601667,"longitude":-75.477222,"ugtype":[],"contacts":[],"state":1,"inputFilter":null,"country":"United States","cc":"US","ccc":"USA"},{"id":67,"name":"North-West Ohio","shortname":"nwo","url":"http:\/\/www.nwo-pug.org\/","icalendar_url":null,"latitude":41.281944,"longitude":-84.362778,"ugtype":[],"contacts":[],"state":1,"inputFilter":null,"country":"United States","cc":"US","ccc":"USA"},{"id":68,"name":"Ventura","shortname":"ventura","url":"http:\/\/www.venturaphp.org\/","icalendar_url":null,"latitude":34.191389,"longitude":-119.1825,"ugtype":[],"contacts":[],"state":1,"inputFilter":null,"country":"United States","cc":"US","ccc":"USA"},{"id":69,"name":"Portland","shortname":"pdx","url":"http:\/\/pdxphp.org\/","icalendar_url":null,"latitude":45.52,"longitude":-122.681944,"ugtype":[],"contacts":[],"state":1,"inputFilter":null},{"id":70,"name":"Waco","shortname":"waco","url":"http:\/\/www.wacophp.org\/","icalendar_url":null,"latitude":31.551389,"longitude":-97.155833,"ugtype":[],"contacts":[],"state":1,"inputFilter":null,"country":"United States","cc":"US","ccc":"USA"},{"id":71,"name":"BCS","shortname":"bcs","url":"http:\/\/www.meetup.com\/bcsphp\/","icalendar_url":null,"latitude":30.601389,"longitude":-96.314444,"ugtype":[],"contacts":[],"state":1,"inputFilter":null,"country":"United States","cc":"US","ccc":"USA"},{"id":73,"name":"Twente","shortname":"twente","url":"http:\/\/phptwente.nl","icalendar_url":null,"latitude":52.22,"longitude":6.896389,"ugtype":[],"contacts":[],"state":1,"inputFilter":null,"country":"The Netherlands","cc":"NL","ccc":"NLD"},{"id":74,"name":"Washington D.C.","shortname":"DC","url":"http:\/\/www.meetup.com\/DC-PHP\/","icalendar_url":null,"latitude":38.895,"longitude":-77.036667,"ugtype":[],"contacts":[],"state":1,"inputFilter":null,"country":"United States","cc":"US","ccc":"USA"},{"id":75,"name":"Baltimore","shortname":"baltimore","url":"http:\/\/www.meetup.com\/baltimorephp\/","icalendar_url":null,"latitude":39.286389,"longitude":-76.615,"ugtype":[],"contacts":[],"state":1,"inputFilter":null,"country":"United States","cc":"US","ccc":"USA"},{"id":76,"name":"Friuli","shortname":"friuli","url":"http:\/\/friuli.grusp.org","icalendar_url":null,"latitude":45.961215,"longitude":12.978045,"ugtype":[],"contacts":[],"state":1,"inputFilter":null,"country":"Italy","cc":"IT","ccc":"ITA"},{"id":77,"name":"Brighton","shortname":"brighton","url":"http:\/\/brightonphp.org","icalendar_url":null,"latitude":50.842941,"longitude":-0.131312,"ugtype":[],"contacts":[],"state":1,"inputFilter":null,"country":"United Kingdom","cc":"GB","ccc":"GBR"},{"id":78,"name":"Jacksonville","shortname":"jax","url":"http:\/\/www.meetup.com\/JaxPHP-JaxWeb\/","icalendar_url":null,"latitude":30.3194,"longitude":-81.66,"ugtype":[],"contacts":[],"state":1,"inputFilter":null,"country":"United States","cc":"US","ccc":"USA"},{"id":79,"name":"Orlando","shortname":"orlando","url":"http:\/\/www.meetup.com\/orlandophp\/","icalendar_url":null,"latitude":28.415833,"longitude":-81.298889,"ugtype":[],"contacts":[],"state":1,"inputFilter":null},{"id":80,"name":"Budapest","shortname":"budapest","url":"http:\/\/www.meetup.com\/phpmeetup\/","icalendar_url":"http:\/\/www.meetup.com\/phpmeetup\/events\/ical\/PHP+meetup\/","latitude":47.471944,"longitude":19.050278,"ugtype":[],"contacts":[],"state":1,"inputFilter":null,"country":"Hungary","cc":"HU","ccc":"HUN"},{"id":81,"name":"Madison","shortname":"madison","url":"http:\/\/www.madisonphp.com","icalendar_url":null,"latitude":43.066667,"longitude":-89.4,"ugtype":[],"contacts":[],"state":1,"inputFilter":null,"country":"United States","cc":"US","ccc":"USA"},{"id":82,"name":"Austin","shortname":"austin","url":"http:\/\/austinphp.org","icalendar_url":null,"latitude":30.25,"longitude":-97.75,"ugtype":[],"contacts":[],"state":1,"inputFilter":null,"country":"United States","cc":"US","ccc":"USA"},{"id":83,"name":"Santa Catarina","shortname":"phpsc","url":"http:\/\/www.phpsc.com.br","icalendar_url":null,"latitude":-27.5717,"longitude":-48.6256,"ugtype":[],"contacts":[],"state":1,"inputFilter":null,"country":"Brazil","cc":"BR","ccc":"BRA"},{"id":84,"name":"Seattle","shortname":"seattle","url":"http:\/\/www.meetup.com\/php-49","icalendar_url":null,"latitude":47.609722,"longitude":-122.333056,"ugtype":[],"contacts":[],"state":1,"inputFilter":null,"country":"United States","cc":"US","ccc":"USA"},{"id":85,"name":"Niagara","shortname":"niagara","url":"http:\/\/phpniagara.ca","icalendar_url":null,"latitude":43.183333,"longitude":-79.233333,"ugtype":[],"contacts":[],"state":1,"inputFilter":null,"country":"Canada","cc":"CA","ccc":"CAN"},{"id":86,"name":"Zagreb","shortname":"zg","url":"http:\/\/zgphp.org\/","icalendar_url":"http:\/\/www.meetup.com\/ZgPHP-meetup\/events\/ical\/ZgPHP+meetup\/","latitude":45.810278,"longitude":15.978056,"ugtype":[],"contacts":[],"state":1,"inputFilter":null,"country":"Croatia","cc":"HR","ccc":"HRV"},{"id":87,"name":"Buffalo","shortname":"buffalo","url":"http:\/\/www.meetup.com\/buffalophp","icalendar_url":"http:\/\/www.meetup.com\/buffalophp\/events\/ical\/The+Buffalo+PHP+User+Group\/","latitude":42.904722,"longitude":-78.849444,"ugtype":[],"contacts":[],"state":1,"inputFilter":null,"country":"United States","cc":"US","ccc":"USA"},{"id":88,"name":"Utah","shortname":"utah","url":"http:\/\/uphpu.org","icalendar_url":"","latitude":40.473333,"longitude":-111.944444,"ugtype":[],"contacts":[],"state":1,"inputFilter":null,"country":"United States","cc":"US","ccc":"USA"},{"id":89,"name":"Lisbon","shortname":"lx","url":"http:\/\/phplx.net","icalendar_url":null,"latitude":38.713811,"longitude":-9.139386,"ugtype":[],"contacts":[],"state":1,"inputFilter":null,"country":"Portugal","cc":"PT","ccc":"PRT"},{"id":90,"name":"Oldenburg","shortname":"ol","url":"http:\/\/www.webstammtisch-oldenburg.de","icalendar_url":null,"latitude":53.143889,"longitude":8.213889,"ugtype":[],"contacts":[],"state":1,"inputFilter":null,"country":"Germany","cc":"DE","ccc":"DEU"},{"id":91,"name":"Rio","shortname":"rio","url":"http:\/\/phprio.org","icalendar_url":null,"latitude":-22.90833,"longitude":-43.196389,"ugtype":[],"contacts":[],"state":1,"inputFilter":null,"country":"Brazil","cc":"BR","ccc":"BRA"},{"id":92,"name":"San Diego","shortname":"sd","url":"http:\/\/www.meetup.com\/SanDiegoPHP\/","icalendar_url":null,"latitude":32.715,"longitude":-117.1625,"ugtype":[],"contacts":[],"state":1,"inputFilter":null,"country":"United States","cc":"US","ccc":"USA"},{"id":93,"name":"Boston","shortname":"boston","url":"http:\/\/www.bostonphp.org\/","icalendar_url":null,"latitude":42.3583,"longitude":-71.0603,"ugtype":[],"contacts":[],"state":1,"inputFilter":null,"country":"United States","cc":"US","ccc":"USA"},{"id":94,"name":"Indianapolis","shortname":"indy","url":"http:\/\/meetup.com\/indyphp","icalendar_url":null,"latitude":39.767969,"longitude":-86.158089,"ugtype":[],"contacts":[],"state":1,"inputFilter":null,"country":"United States","cc":"US","ccc":"USA"},{"id":95,"name":"Sergipe","shortname":"se","url":"http:\/\/phpse.net","icalendar_url":null,"latitude":-10.916389,"longitude":-37.049722,"ugtype":[],"contacts":[],"state":1,"inputFilter":null,"country":"Brazil","cc":"BR","ccc":"BRA"},{"id":96,"name":"Front Range","shortname":"denver","url":"http:\/\/frontrangephp.org","icalendar_url":null,"latitude":39.778889,"longitude":-104.9825,"ugtype":[],"contacts":[],"state":1,"inputFilter":null,"country":"United States","cc":"US","ccc":"USA"},{"id":97,"name":"Dortmund-Duisburg-Krefeld","shortname":"dus","url":"https:\/\/www.xing.com\/net\/phpgroupd","icalendar_url":null,"latitude":51.25,"longitude":6.76,"ugtype":[],"contacts":[],"state":1,"inputFilter":null,"country":"Germany","cc":"DE","ccc":"DEU"},{"id":98,"name":"Vilnius","shortname":"vilnius","url":"http:\/\/www.vilniusphp.lt","icalendar_url":null,"latitude":54.683333,"longitude":25.266667,"ugtype":[],"contacts":[],"state":1,"inputFilter":null,"country":"Lithuania","cc":"LT","ccc":"LTU"},{"id":99,"name":"Mato Grosso do Sul","shortname":"ms","url":"http:\/\/phpms.org","icalendar_url":null,"latitude":-21.566667,"longitude":-54.9,"ugtype":[],"contacts":[],"state":1,"inputFilter":null,"country":"Brazil","cc":"BR","ccc":"BRA"},{"id":100,"name":"Paid\u2019\u00e9gua","shortname":"paidegua","url":"http:\/\/phppaidegua.wordpress.com","icalendar_url":"","latitude":-1.466667,"longitude":-48.483333,"ugtype":[],"contacts":[],"state":1,"inputFilter":null,"country":"Brazil","cc":"BR","ccc":"BRA"},{"id":101,"name":"San Francisco","shortname":"sf","url":"http:\/\/www.sfphp.org\/","icalendar_url":"webcal:\/\/www.sfphp.org\/events\/ical\/The+SF+PHP+Meetup+Group\/","latitude":37.7793,"longitude":-122.4192,"ugtype":[],"contacts":[],"state":1,"inputFilter":null,"country":"United States","cc":"US","ccc":"USA"},{"id":102,"name":"Philadelphia","shortname":"philly","url":"http:\/\/www.meetup.com\/phillyphp\/","icalendar_url":"webcal:\/\/www.meetup.com\/phillyphp\/events\/ical\/The+Philadelphia+Area+PHP+Meetup+Group\/","latitude":39.958611,"longitude":-75.605,"ugtype":[],"contacts":[],"state":1,"inputFilter":null,"country":"United States","cc":"US","ccc":"USA"},{"id":103,"name":"Orange County","shortname":"oc","url":"http:\/\/www.meetup.com\/oc-php","icalendar_url":"webcal:\/\/www.meetup.com\/oc-php\/events\/ical\/OCPHP+%7C+Orange+County+PHP\/","latitude":33.88,"longitude":-117.928611,"ugtype":[],"contacts":[],"state":1,"inputFilter":null,"country":"United States","cc":"US","ccc":"USA"},{"id":104,"name":"New York","shortname":"ny","url":"http:\/\/www.nyphp.org","icalendar_url":"webcal:\/\/www.nycphpmeetup.org\/events\/ical\/New+York+PHP+Meetup\/","latitude":40.712778,"longitude":-74.005833,"ugtype":[],"contacts":[],"state":1,"inputFilter":null,"country":"United States","cc":"US","ccc":"USA"},{"id":105,"name":"Queen City","shortname":"qc","url":"http:\/\/qcphp.org\/","icalendar_url":"webcal:\/\/meetup.qcphp.org\/events\/ical\/Queen+City+PHP\/","latitude":35.226944,"longitude":-80.843333,"ugtype":[],"contacts":[],"state":1,"inputFilter":null,"country":"United States","cc":"US","ccc":"USA"},{"id":106,"name":"Ann Arbor","shortname":"a2lamp","url":"http:\/\/www.meetup.com\/ann-arbor-php-mysql\/","icalendar_url":"webcal:\/\/www.meetup.com\/ann-arbor-php-mysql\/events\/ical\/Ann+Arbor+PHP+MySQL\/","latitude":42.27535,"longitude":-83.730839,"ugtype":[],"contacts":[],"state":1,"inputFilter":null,"country":"United States","cc":"US","ccc":"USA"},{"id":107,"name":"Hampshire","shortname":"hants","url":"http:\/\/www.phphants.co.uk\/","icalendar_url":null,"latitude":50.795278,"longitude":-1.088889,"ugtype":[],"contacts":[],"state":1,"inputFilter":null,"country":"United Kingdom","cc":"GB","ccc":"GBR"},{"id":108,"name":"Kainsai","shortname":"k","url":"http:\/\/www.kphpug.jp","icalendar_url":null,"latitude":35,"longitude":135,"ugtype":[],"contacts":[],"state":1,"inputFilter":null,"country":"Japan","cc":"JP","ccc":"JPN"},{"id":109,"name":"NorthEast","shortname":"ne","url":"http:\/\/phpne.org.uk","icalendar_url":null,"latitude":54.974,"longitude":-1.6132,"ugtype":[],"contacts":[],"state":1,"inputFilter":null,"country":"United Kingdom","cc":"GB","ccc":"GBR"},{"id":110,"name":"Tulsa","shortname":"tulsa","url":"http:\/\/tulsawebdevs.org","icalendar_url":null,"latitude":36.131389,"longitude":-95.937222,"ugtype":[],"contacts":[],"state":1,"inputFilter":null,"country":"United States","cc":"US","ccc":"USA"},{"id":111,"name":"Dublin","shortname":"dublin","url":"https:\/\/tito.io\/engine-yard\/php-dublin","icalendar_url":null,"latitude":53.3409,"longitude":-6.23702,"ugtype":[],"contacts":[],"state":1,"inputFilter":null,"country":"Ireland","cc":"IE","ccc":"IRL"},{"id":112,"name":"Madrid","shortname":"mad","url":"http:\/\/phpmad.org\r\n","icalendar_url":"webcal:\/\/www.meetup.com\/PHPMad\/events\/ical\/PHPMad\/\r\n","latitude":40.4,"longitude":-3.683333,"ugtype":[],"contacts":[],"state":1,"inputFilter":null,"country":"Spain","cc":"ES","ccc":"ESP"},{"id":113,"name":"Greater Toronto Area","shortname":"gta","url":"http:\/\/meetup.gtaphp.org","icalendar_url":"webcal:\/\/www.meetup.com\/GTA-PHP-User-Group-Toronto\/events\/ical\/GTA+PHP+User+Group\/","latitude":43.7,"longitude":-79.4,"ugtype":[],"contacts":[],"state":1,"inputFilter":null,"country":"Canada","cc":"CA","ccc":"CAN"},{"id":114,"name":"Montevideo","shortname":"mvd","url":"http:\/\/phpmvd.uy","icalendar_url":"webcal:\/\/www.meetup.com\/PHPmvd\/events\/ical\/PHP+MVD\/","latitude":-34.883611,"longitude":-56.181944,"ugtype":[],"contacts":[],"state":1,"inputFilter":null,"country":"Uruguay","cc":"UY","ccc":"URY"},{"id":115,"name":"Dortmund","shortname":"do","url":"http:\/\/www.phpugdo.de","icalendar_url":null,"latitude":51.516667,"longitude":7.466667,"ugtype":[],"contacts":[],"state":1,"inputFilter":null,"country":"Germany","cc":"DE","ccc":"DEU"},{"id":116,"name":"Alicante","shortname":"alicante","url":"http:\/\/alicantephp.es","icalendar_url":null,"latitude":38.345278,"longitude":-0.483056,"ugtype":[],"contacts":[],"state":1,"inputFilter":null,"country":"Spain","cc":"ES","ccc":"ESP"},{"id":117,"name":"K\u00f6n-Bonn","shortname":"koeln","url":"https:\/\/plus.google.com\/110835714076723732654\/posts","icalendar_url":null,"latitude":50.948613,"longitude":6.944711,"ugtype":[],"contacts":[],"state":1,"inputFilter":null,"country":"Germany","cc":"DE","ccc":"DEU"},{"id":119,"name":"SweetlakePhp","shortname":"slp","url":"http:\/\/www.sweetlakephp.nl","icalendar_url":"http:\/\/meetup.com\/SweetlakePHP\/events\/ical\/SweetlakePHP\/","latitude":52.0611,"longitude":4.4933,"ugtype":[],"contacts":[],"state":1,"inputFilter":null,"country":"The Netherlands","cc":"NL","ccc":"NLD"},{"id":121,"name":"Amersfoort","shortname":"amersfoort","url":"http:\/\/www.meetup.com\/PHPAmersfoort\/","icalendar_url":"webcal:\/\/meetup.com\/PHPAmersfoort\/events\/ical\/PHPAmersfoort\/","latitude":52.1525,"longitude":5.386944,"ugtype":[],"contacts":[],"state":1,"inputFilter":null,"country":"The Netherlands","cc":"NL","ccc":"NLD"},{"id":122,"name":"Groningen","shortname":"groningen","url":"http:\/\/groningenphp.nl","icalendar_url":"webcal:\/\/meetup.com\/GroningenPHP\/events\/ical\/GroningenPHP\/","latitude":53.217222,"longitude":6.574722,"ugtype":[],"contacts":[],"state":1,"inputFilter":null,"country":"The Netherlands","cc":"NL","ccc":"NLD"},{"id":123,"name":"010PHP","shortname":"010","url":"http:\/\/010php.nl","icalendar_url":"webcal:\/\/meetup.com\/010PHP\/events\/ical\/010PHP\/","latitude":51.930833,"longitude":4.479167,"ugtype":[],"contacts":[],"state":1,"inputFilter":null,"country":"The Netherlands","cc":"NL","ccc":"NLD"},{"id":124,"name":"Tampa Bay","shortname":"tb","url":"http:\/\/www.tbphp.org","icalendar_url":"webcal:\/\/www.meetup.com\/tampa-bay-php\/events\/ical\/Tampa+Bay+PHP\/","latitude":27.971,"longitude":-82.465,"ugtype":[],"contacts":[],"state":1,"inputFilter":null,"country":"United States","cc":"US","ccc":"USA"},{"id":125,"name":"KaunasPHP","shortname":"kaunas","url":"http:\/\/kaunasphp.lt\/","icalendar_url":"","latitude":54.903733,"longitude":23.960513,"ugtype":[],"contacts":[],"state":1,"inputFilter":null,"country":"Lithuania","cc":"LT","ccc":"LTU"},{"id":126,"name":"Erlangen-N\u00fcrnberg","shortname":"en","url":"http:\/\/phpugen.de","icalendar_url":null,"latitude":49.451687,"longitude":11.073584,"ugtype":[],"contacts":[],"state":1,"inputFilter":null,"country":"Germany","cc":"DE","ccc":"DEU"},{"id":127,"name":"Vienna","shortname":"vienna","url":"http:\/\/www.meetup.com\/viennaphp","icalendar_url":"webcal:\/\/www.meetup.com\/viennaphp\/events\/ical\/Vienna+PHP+User+Group\/","latitude":48.207287,"longitude":16.373641,"ugtype":[],"contacts":[],"state":1,"inputFilter":null,"country":"Austria","cc":"AT","ccc":"AUT"},{"id":128,"name":"Belfast","shortname":"belfast","url":"http:\/\/phpbelfast.com","icalendar_url":null,"latitude":54.597528,"longitude":-5.929291,"ugtype":[],"contacts":[],"state":1,"inputFilter":null,"country":"United Kingdom","cc":"GB","ccc":"GBR"},{"id":129,"name":"Bologna","shortname":"bologna","url":"http:\/\/bologna.grusp.org","icalendar_url":"https:\/\/www.google.com\/calendar\/ical\/l4l5htd0qhnn0jgqrbj1vo1blo%40group.calendar.google.com\/public\/basic.ics","latitude":44.49626,"longitude":11.342987,"ugtype":[],"contacts":[],"state":1,"inputFilter":null,"country":"Italy","cc":"IT","ccc":"ITA"},{"id":130,"name":"Brno","shortname":"brno","url":"http:\/\/www.brnophp.cz","icalendar_url":null,"latitude":49.20156,"longitude":16.607696,"ugtype":[],"contacts":[],"state":1,"inputFilter":null,"country":"Czech Republic","cc":"CZ","ccc":"CZE"},{"id":131,"name":"Sheffield","shortname":"shef","url":"https:\/\/twitter.com\/ShefPHP","icalendar_url":null,"latitude":53.3824,"longitude":-1.4719,"ugtype":[],"contacts":[],"state":1,"inputFilter":null,"country":"United Kingdom","cc":"GB","ccc":"GBR"},{"id":132,"name":"Dorset","shortname":"dorset","url":"http:\/\/phpdorset.co.uk\/","icalendar_url":null,"latitude":50.7178,"longitude":-1.8794,"ugtype":[],"contacts":[],"state":1,"inputFilter":null,"country":"United Kingdom","cc":"GB","ccc":"GBR"},{"id":136,"name":"Oklahoma","shortname":"oklahoma","url":"http:\/\/www.meetup.com\/OklahomaPHP\/","icalendar_url":"http:\/\/www.meetup.com\/OklahomaPHP\/events\/ical\/OklahomaPHP\/","latitude":35.4688,"longitude":-97.516417,"ugtype":[],"contacts":[],"state":1,"inputFilter":null,"country":"United States","cc":"US","ccc":"USA"}]}